City_ID,City,Lat,Lng,Max Temp,Humidity,Cloudiness,Wind Speed,Country,Date
0,hilo,19.7297,-155.09,74.25,91,100,6.91,US,1667717337
1,rocha,-34.4833,-54.3333,52.52,97,3,4.43,UY,1667717426
2,rock sound,24.9,-76.2,80.53,71,2,22.03,BS,1667717429
3,hualmay,-11.0964,-77.6139,61.16,87,7,8.32,PE,1667717431
4,riyadh,24.6877,46.7219,77.14,32,9,14.81,SA,1667717401
5,isangel,-19.55,169.2667,82.51,69,7,3.44,VU,1667717438
6,bredasdorp,-34.5322,20.0403,70.34,62,3,14.94,ZA,1667717441
7,madang,-5.2246,145.7966,84.04,72,87,6.38,PG,1667717443
8,vaini,-21.2,-175.2,75.36,83,20,6.91,TO,1667717446
9,nanortalik,60.1432,-45.2371,33.93,96,100,10.47,GL,1667717448
10,chail,25.4333,81.6333,84.54,34,49,5.26,IN,1667717451
11,punta arenas,-53.15,-70.9167,48.31,81,0,9.22,CL,1667717453
12,hermanus,-34.4187,19.2345,67.8,69,4,11.45,ZA,1667716968
13,trogir,43.5125,16.2517,59.05,51,0,5.75,HR,1667717458
14,phuket,8.0,98.25,84.42,74,75,10.36,TH,1667717460
15,bluff,-46.6,168.3333,53.44,72,6,10.65,NZ,1667717463
16,xiaoweizhai,26.1903,107.5125,73.74,45,78,4.43,CN,1667717466
17,hithadhoo,-0.6,73.0833,81.57,75,100,8.75,MV,1667717468
18,souillac,-20.5167,57.5167,80.98,65,40,12.66,MU,1667717473
19,mar del plata,-38.0023,-57.5575,60.87,86,0,15.99,AR,1667717476
20,kirkwall,58.9848,-2.9587,47.97,93,73,6.91,GB,1667717480
21,ancud,-41.8697,-73.8203,52.03,82,100,6.29,CL,1667716942
22,bilibino,68.0546,166.4372,17.19,96,100,8.77,RU,1667717485
23,pevek,69.7008,170.3133,30.31,91,99,17.02,RU,1667717489
24,poronaysk,49.2167,143.1167,28.87,63,84,11.7,RU,1667717491
25,barrow,71.2906,-156.7887,-11.18,77,100,10.36,US,1667717494
26,hit,33.6416,42.8251,74.46,26,3,3.53,IQ,1667717499
27,yellowknife,62.456,-114.3525,-3.44,77,20,12.66,CA,1667717279
28,klaksvik,62.2266,-6.589,40.12,81,100,12.59,FO,1667716965
29,mareeba,-17.0,145.4333,78.44,68,59,7.65,AU,1667717508
30,mataura,-46.1927,168.8643,51.64,68,0,4.43,NZ,1667717510
31,tolaga bay,-38.3667,178.3,53.87,71,45,4.92,NZ,1667717513
32,kropotkin,45.4375,40.5756,45.5,67,6,13.53,RU,1667717515
33,khatanga,71.9667,102.5,-20.51,99,64,5.23,RU,1667717518
34,atuona,-9.8,-139.0333,77.34,70,45,15.84,PF,1667717520
35,busselton,-33.65,115.3333,72.55,48,90,6.55,AU,1667717523
36,muhos,64.808,25.9931,31.89,92,100,8.12,FI,1667717525
37,slave lake,55.2834,-114.769,13.98,73,100,11.5,CA,1667717528
38,ushuaia,-54.8,-68.3,46.06,87,0,2.3,AR,1667717530
39,dikson,73.5069,80.5464,13.57,93,100,15.14,RU,1667717533
40,la asuncion,11.0333,-63.8628,78.22,78,74,5.1,VE,1667717536
41,skotterud,59.9828,12.1283,40.08,95,100,8.52,NO,1667717538
42,lima,-12.0432,-77.0282,59.9,85,0,9.22,PE,1667717366
43,faanui,-16.4833,-151.75,77.61,83,100,23.4,PF,1667717235
44,ilulissat,69.2167,-51.1,11.01,92,99,2.89,GL,1667717545
45,crotone,39.0851,17.1178,57.2,70,63,13.38,IT,1667717187
46,lagoa,39.05,-27.9833,63.09,72,9,12.82,PT,1667717550
47,cape town,-33.9258,18.4232,73.11,67,0,9.22,ZA,1667717553
48,luderitz,-26.6481,15.1594,67.96,66,99,6.51,NA,1667716987
49,manhush,47.0558,37.3107,42.53,100,38,15.21,UA,1667717557
50,half moon bay,37.4636,-122.4286,62.58,92,100,8.05,US,1667717560
51,touros,-5.1989,-35.4608,77.61,79,70,11.48,BR,1667717562
52,bowen,-20.0167,148.2333,77.95,63,99,20.47,AU,1667717565
53,prince rupert,54.3161,-130.3201,38.89,82,100,16.11,CA,1667716809
54,seoul,37.5683,126.9778,60.4,36,0,6.91,KR,1667717325
55,longyearbyen,78.2186,15.6401,31.84,80,40,3.44,SJ,1667717572
56,hamilton,39.1834,-84.5333,65.03,76,100,9.22,US,1667717343
57,plavinas,56.6178,25.7255,40.44,97,100,5.01,LV,1667717576
58,rangoon,16.8053,96.1561,87.76,62,40,6.91,MM,1667717579
59,atasu,48.6814,71.6433,34.2,61,93,7.83,KZ,1667717581
60,lompoc,34.6391,-120.4579,55.94,89,0,8.05,US,1667717575
61,pangnirtung,66.1451,-65.7125,8.19,90,19,9.19,CA,1667717586
62,mayo,38.8876,-76.5119,70.18,92,0,12.66,US,1667717589
63,thompson,55.7435,-97.8558,26.76,93,75,11.5,CA,1667716996
64,chuy,-33.6971,-53.4616,56.75,92,0,7.18,UY,1667717593
65,mulege,26.8833,-111.9833,65.8,54,0,2.75,MX,1667717596
66,lata,40.1629,-8.3327,50.07,62,80,3.22,PT,1667717599
67,paulista,-7.9408,-34.8731,75.06,88,100,5.23,BR,1667717601
68,rikitea,-23.1203,-134.9692,71.38,77,100,17.29,PF,1667717604
69,szamotuly,52.612,16.5779,39.31,89,9,7.18,PL,1667717606
70,mainit,9.535,125.5231,85.3,69,67,4.72,PH,1667717611
71,nanakuli,21.3906,-158.1547,79.99,61,100,14.97,US,1667717614
72,port alfred,-33.5906,26.891,70.18,79,4,1.99,ZA,1667717616
73,pisco,-13.7,-76.2167,59.02,88,4,2.3,PE,1667717101
74,lorengau,-2.0226,147.2712,83.17,75,63,3.67,PG,1667717621
75,esperance,-33.8667,121.9,64.99,68,99,23.49,AU,1667717623
76,east london,-33.0153,27.9116,72.54,73,0,3.44,ZA,1667717209
77,jumla,29.2747,82.1838,61.68,28,1,6.91,NP,1667717628
78,hobart,-42.8794,147.3294,74.26,57,40,8.05,AU,1667717602
79,vila velha,-20.3297,-40.2925,67.95,83,0,5.01,BR,1667717633
80,sayyan,15.1718,44.3244,63.68,20,2,5.3,YE,1667717636
81,port elizabeth,-33.918,25.5701,77.09,73,20,3.44,ZA,1667717534
82,hamburg,53.55,10.0,48.29,85,75,16.11,DE,1667717635
83,cherskiy,68.75,161.3,2.19,96,100,5.95,RU,1667717227
84,diamantino,-14.4086,-56.4461,66.94,57,0,2.21,BR,1667717645
85,senador jose porfirio,-2.5908,-51.9542,72.82,94,100,1.1,BR,1667717647
86,kapaa,22.0752,-159.319,78.12,84,40,16.11,US,1667717650
87,albany,42.6001,-73.9662,67.73,81,100,1.99,US,1667717652
88,nemuro,43.3236,145.575,46.62,55,94,4.59,JP,1667717655
89,stephenville,32.2207,-98.2023,58.14,72,0,6.91,US,1667717447
90,srikakulam,18.3,83.9,83.82,52,16,5.73,IN,1667717660
91,waipawa,-41.4122,175.5153,50.9,75,31,7.05,NZ,1667717663
92,filadelfia,39.9523,-75.1638,68.22,86,75,4.61,US,1667717472
93,zhigansk,66.7697,123.3711,-19.79,98,31,6.51,RU,1667717305
94,ferme-neuve,46.7001,-75.4493,65.66,82,100,18.25,CA,1667717672
95,codrington,-38.2667,141.9667,63.86,70,52,5.7,AU,1667717675
96,kruisfontein,-34.0033,24.7314,74.88,54,0,7.7,ZA,1667717182
97,vidim,56.4088,103.1106,32.49,96,100,4.97,RU,1667717679
98,bayan,46.0833,127.4,40.37,43,10,4.45,CN,1667717682
99,nobres,-14.7203,-56.3275,67.55,53,0,1.88,BR,1667717684
100,fortuna,40.5982,-124.1573,46.98,94,100,3.0,US,1667716915
101,mount gambier,-37.8333,140.7667,68.43,54,27,4.79,AU,1667717484
102,jamestown,42.097,-79.2353,66.02,91,100,11.5,US,1667717685
103,nhulunbuy,-12.2333,136.7667,90.21,58,40,9.22,AU,1667717696
104,sabla,12.7525,4.7077,73.51,25,27,7.92,NG,1667717698
105,new norfolk,-42.7826,147.0587,73.9,25,91,3.0,AU,1667717701
106,lakes entrance,-37.8811,147.981,69.17,66,100,8.88,AU,1667717703
107,walvis bay,-22.9575,14.5053,61.75,94,100,6.91,NA,1667717706
108,igrim,63.1906,64.4162,22.12,82,92,4.63,RU,1667717709
109,nchelenge,-9.3451,28.734,75.4,69,80,5.23,ZM,1667717712
110,kasongo-lunda,-6.4667,16.8167,73.33,87,100,1.77,CD,1667717714
111,sitka,57.0531,-135.33,29.39,51,9,11.05,US,1667717717
112,hengyang,26.8881,112.615,74.52,39,29,4.07,CN,1667717719
113,butaritari,3.0707,172.7902,79.72,73,79,8.86,KI,1667717722
114,clyde river,70.4692,-68.5914,-7.94,87,55,5.82,CA,1667717724
115,harper,4.375,-7.7169,77.94,86,91,7.23,LR,1667717727
116,lubango,-14.9172,13.4925,69.17,39,10,3.74,AO,1667717659
117,nikolskoye,59.7035,30.7861,31.91,72,100,10.16,RU,1667717732
118,jati,24.3539,68.2671,91.63,26,40,10.54,PK,1667717735
119,georgetown,5.4112,100.3354,89.53,77,40,8.05,MY,1667717739
120,saint george,37.1041,-113.5841,52.39,45,100,4.61,US,1667717742
121,bairnsdale,-37.8333,147.6167,69.06,64,100,4.0,AU,1667717744
122,hojai,26.0,92.8667,79.95,68,0,0.78,IN,1667717747
123,port hardy,50.6996,-127.4199,39.38,87,75,20.71,CA,1667717749
124,coueron,47.2151,-1.7217,56.88,86,75,10.36,FR,1667717754
125,san jose,37.3394,-121.895,61.59,87,100,4.61,US,1667717754
126,gabu,12.2833,-14.2167,69.04,82,0,3.29,GW,1667717759
127,bereda,43.2686,-7.5406,53.42,100,100,5.19,ES,1667717761
128,illapel,-31.6308,-71.1653,56.32,81,55,1.52,CL,1667717764
129,udachnyy,66.4167,112.4,-4.56,76,52,1.7,RU,1667717766
130,sulangan,11.1373,123.7228,82.71,76,89,12.17,PH,1667717769
131,bambous virieux,-20.3428,57.7575,80.85,65,40,12.66,MU,1667717772
132,siguiri,11.6667,-9.5,70.95,49,8,1.41,GN,1667717774
133,biltine,14.5333,20.9167,84.07,17,78,16.2,TD,1667717777
134,henties bay,-22.116,14.2845,64.45,76,76,4.81,NA,1667717779
135,bathsheba,13.2167,-59.5167,79.41,89,75,19.57,BB,1667717247
136,leningradskiy,69.3833,178.4167,12.04,86,41,13.47,RU,1667717784
137,ahipara,-35.1667,173.1667,59.14,84,63,3.15,NZ,1667717787
138,takoradi,4.8845,-1.7554,78.82,85,90,6.33,GH,1667717789
139,ginda,30.6945,78.4932,68.22,33,11,5.57,IN,1667717792
140,hazebrouck,50.7237,2.5373,52.02,85,100,17.76,FR,1667717794
141,saint-philippe,-21.3585,55.7679,80.19,76,50,7.18,RE,1667717797
142,grindavik,63.8424,-22.4338,42.75,65,0,13.8,IS,1667717799
143,abbeville,50.1,1.8333,53.49,83,100,17.56,FR,1667717802
144,aripuana,-9.1667,-60.6333,69.08,67,6,1.52,BR,1667717804
145,bengkulu,-3.8004,102.2655,82.13,69,100,5.5,ID,1667717807
146,lasa,46.6166,10.7002,40.08,45,91,1.77,IT,1667717232
147,inta,66.0317,60.1659,26.65,97,100,13.89,RU,1667717811
148,yumen,40.2833,97.2,52.16,16,42,14.74,CN,1667717814
149,gaspe,48.8334,-64.4819,51.71,93,40,2.3,CA,1667717816
150,lebu,-37.6167,-73.65,49.17,92,12,6.22,CL,1667717819
151,northam,51.0333,-4.2167,51.62,96,100,13.44,GB,1667717821
152,mondlo,-27.983,30.7177,70.95,50,0,3.18,ZA,1667717824
153,mets parni,40.8334,44.1104,44.42,62,100,5.97,AM,1667717827
154,carnarvon,-24.8667,113.6333,70.84,67,58,20.2,AU,1667717829
155,sao raimundo nonato,-9.0153,-42.6994,70.59,96,100,3.6,BR,1667717832
156,dongkan,33.9997,119.8308,65.7,28,82,11.88,CN,1667717834
157,te anau,-45.4167,167.7167,53.51,69,0,5.55,NZ,1667717837
158,santa cruz cabralia,-16.2781,-39.0247,66.43,94,20,6.91,BR,1667717839
159,qaanaaq,77.484,-69.3632,4.01,78,100,5.75,GL,1667717842
160,nuevo progreso,23.1667,-97.95,73.47,65,2,3.49,MX,1667717844
161,fairbanks,64.8378,-147.7164,3.92,93,60,1.54,US,1667717732
162,ust-kuyga,70.0167,135.6,-1.3,98,100,5.68,RU,1667717849
163,bethel,41.3712,-73.414,66.36,84,100,10.56,US,1667717852
164,beloha,-25.1667,45.05,89.91,36,100,7.23,MG,1667717753
165,oga,46.4631,10.347,36.03,60,68,1.3,IT,1667717857
166,hami,42.8,93.45,59.5,15,13,0.31,CN,1667717711
167,arraial do cabo,-22.9661,-42.0278,67.33,74,23,6.98,BR,1667717861
168,talnakh,69.4865,88.3972,20.75,96,100,9.82,RU,1667717864
169,alyangula,-13.8483,136.4192,85.64,60,28,6.89,AU,1667717866
170,castro,-24.7911,-50.0119,45.16,97,83,5.17,BR,1667717588
171,birao,10.2849,22.7882,83.26,28,98,7.45,CF,1667717871
172,broome,42.2506,-75.833,69.53,79,100,17.0,US,1667717873
173,bloomingdale,27.8936,-82.2404,75.09,94,0,4.0,US,1667717876
174,victoria,22.2855,114.1577,73.33,85,96,15.01,HK,1667717803
175,wajir,1.7471,40.0573,78.76,73,75,6.91,KE,1667717881
176,saldanha,-33.0117,17.9442,65.93,74,0,6.31,ZA,1667717630
177,quang ngai,15.1167,108.8,78.78,80,68,10.8,VN,1667717885
178,puerto ayora,-0.7393,-90.3518,64.9,80,9,8.19,EC,1667717888
179,otjimbingwe,-22.35,16.1333,76.39,25,100,8.55,NA,1667717893
180,avarua,-21.2078,-159.775,73.45,73,0,6.91,CK,1667717895
181,celestun,20.8667,-90.4,76.42,85,22,12.12,MX,1667717836
182,san patricio,28.017,-97.5169,76.89,90,0,2.08,US,1667717900
183,saskylakh,71.9167,114.0833,-24.03,100,79,2.55,RU,1667717903
184,salihorsk,52.7876,27.5415,43.29,92,100,12.91,BY,1667717905
185,malanje,-9.5402,16.341,64.99,94,100,3.06,AO,1667717908
186,port lincoln,-34.7333,135.8667,71.31,52,7,6.96,AU,1667717910
187,aracatuba,-21.2089,-50.4328,61.25,63,22,11.99,BR,1667717913
188,pangkalanbuun,-2.6833,111.6167,78.64,91,100,4.38,ID,1667717698
189,komsomolskiy,40.4272,71.7189,56.12,76,100,4.61,UZ,1667717918
190,sioux lookout,50.1001,-91.917,23.07,93,0,4.61,CA,1667717920
191,warmbad,-28.45,18.7333,74.8,40,4,2.39,NA,1667717922
192,tuktoyaktuk,69.4541,-133.0374,7.39,90,100,15.35,CA,1667717925
193,coria,39.9879,-6.5377,42.46,67,14,2.57,ES,1667717927
194,cayenne,4.9333,-52.3333,73.44,100,20,2.3,GF,1667717930
195,bolgatanga,10.7856,-0.8514,78.19,39,48,4.18,GH,1667717932
196,dunedin,-45.8742,170.5036,52.81,77,55,4.0,NZ,1667717935
197,mayen,50.3333,7.2167,46.44,95,8,5.57,DE,1667717937
198,tiksi,71.6872,128.8694,3.4,90,100,16.75,RU,1667717940
199,banda aceh,5.5577,95.3222,81.55,75,84,7.16,ID,1667717576
200,smithers,54.7804,-127.1743,19.72,68,100,16.11,CA,1667717945
201,oranjemund,-28.55,16.4333,64.56,79,100,4.72,NA,1667717716
202,norman wells,65.282,-126.8329,6.84,72,100,17.27,CA,1667717949
203,wenling,28.3669,121.36,64.33,64,100,9.55,CN,1667717952
204,torbay,47.6666,-52.7314,53.28,93,75,9.22,CA,1667717954
205,upernavik,72.7868,-56.1549,18.73,87,100,10.42,GL,1667717957
206,ranot,7.7777,100.3213,80.1,81,100,2.13,TH,1667717959
207,nouadhibou,20.931,-17.0347,66.18,77,0,13.8,MR,1667717962
208,vilhena,-12.7406,-60.1458,63.88,64,26,1.72,BR,1667717964
209,palmer,42.1584,-72.3287,66.38,87,100,8.05,US,1667717967
210,ribeira grande,38.5167,-28.7,61.77,83,93,1.99,PT,1667717969
211,flinders,-34.5833,150.8552,70.05,74,72,9.04,AU,1667717972
212,anadyr,64.75,177.4833,34.3,80,0,8.95,RU,1667717974
213,camacha,33.0833,-16.3333,65.62,77,75,5.75,PT,1667717977
214,mafinga,-7.25,35.0667,82.02,35,45,6.08,TZ,1667717982
215,magdagachi,53.45,125.8,24.46,74,25,4.25,RU,1667717984
216,varnavino,57.4035,45.0916,30.07,76,45,4.72,RU,1667717987
217,ballina,-28.8667,153.5667,70.79,74,0,8.28,AU,1667717989
218,tuatapere,-46.1333,167.6833,53.46,71,1,4.97,NZ,1667717994
219,kuvshinovo,57.0295,34.1725,31.17,82,100,9.13,RU,1667717996
220,almeirim,-1.5233,-52.5817,74.41,94,100,0.22,BR,1667717999
221,airai,-8.9266,125.4092,71.98,66,85,3.0,TL,1667717487
222,akdepe,42.0551,59.3788,51.89,47,81,7.29,TM,1667717856
223,wanning,18.8003,110.3967,75.79,82,83,14.12,CN,1667718026
224,chokurdakh,70.6333,147.9167,4.71,96,100,7.99,RU,1667717522
225,haines junction,60.7522,-137.5108,5.9,90,100,4.92,CA,1667718032
226,khash,28.2211,61.2158,69.31,39,18,12.93,IR,1667718037
227,vitim,59.4511,112.5578,24.37,92,100,10.78,RU,1667718040
228,matara,5.9485,80.5353,83.05,68,100,5.55,LK,1667718043
229,mujiayingzi,42.1167,118.7833,52.25,23,43,9.48,CN,1667718045
230,coihaique,-45.5752,-72.0662,51.1,98,79,5.79,CL,1667718048
231,san cristobal,7.7669,-72.225,64.65,97,100,1.63,VE,1667718051
232,yangambi,0.8102,24.4336,73.56,86,99,3.4,CD,1667718053
233,neiafu,-18.65,-173.9833,77.83,73,9,17.67,TO,1667718056
234,fare,-16.7,-151.0167,74.37,92,100,22.95,PF,1667718058
235,mount pleasant,32.7941,-79.8626,73.98,95,100,4.61,US,1667717881
236,teknaf,20.8624,92.3058,84.42,60,0,8.1,BD,1667718064
237,katsuura,35.1333,140.3,61.77,63,53,11.03,JP,1667718067
238,tromso,69.6496,18.957,39.38,93,100,2.3,NO,1667718069
239,turukhansk,65.8167,87.9833,27.28,96,100,10.2,RU,1667718074
240,yatou,37.15,122.3833,58.73,53,100,13.62,CN,1667718080
241,malakal,9.5334,31.6605,88.59,22,100,10.27,SS,1667718082
242,kuznetsk,53.1167,46.6004,33.71,75,21,5.35,RU,1667718089
243,pochutla,15.7432,-96.4661,77.83,90,96,2.89,MX,1667718091
244,marrakesh,31.6315,-8.0083,60.87,63,0,3.44,MA,1667718094
245,chemal,51.4111,86.005,53.67,46,100,8.14,RU,1667718097
246,vanavara,60.34,102.2797,25.93,87,100,5.66,RU,1667718099
247,san jeronimo,-11.9472,-75.2829,47.1,87,52,0.38,PE,1667718102
248,namatanai,-3.6667,152.4333,80.02,81,91,2.46,PG,1667718104
249,farafangana,-22.8167,47.8333,80.76,65,100,11.79,MG,1667718107
250,calama,-22.4667,-68.9333,50.59,30,0,6.38,CL,1667718034
251,forbes,-33.3833,148.0167,70.92,56,80,5.59,AU,1667718112
252,correntina,-13.3433,-44.6367,65.66,93,100,3.65,BR,1667718114
253,kaitangata,-46.2817,169.8464,50.83,74,60,5.28,NZ,1667718117
254,sumenep,-7.0167,113.8667,85.68,63,100,5.99,ID,1667718119
255,worthington,40.0931,-83.018,67.42,78,100,4.0,US,1667718122
256,digha,21.6833,87.55,83.5,46,5,2.17,IN,1667718127
257,tasiilaq,65.6145,-37.6368,30.36,93,100,5.23,GL,1667718130
258,baykit,61.67,96.37,23.58,91,100,2.39,RU,1667718132
259,laguna,38.421,-121.4238,59.76,91,100,8.05,US,1667718065
260,gornopravdinsk,60.05,69.9,27.99,87,100,8.86,RU,1667718137
261,vila,42.0304,-8.1588,45.48,94,100,3.8,PT,1667717731
262,vardo,70.3705,31.1107,39.18,93,100,12.66,NO,1667718035
263,gouyave,12.1646,-61.7296,77.9,80,94,5.73,GD,1667718147
264,barcelos,41.5388,-8.6151,55.54,88,100,4.85,PT,1667718150
265,kidal,18.4411,1.4078,71.29,20,0,9.26,ML,1667718152
266,montgomery,39.1501,-77.1997,69.78,86,20,11.5,US,1667718155
267,vao,-22.6667,167.4833,75.67,86,24,17.45,NC,1667718158
268,kungurtug,50.5994,97.5228,35.56,54,10,1.45,RU,1667718160
269,ponta do sol,32.6667,-17.1,68.72,87,13,2.71,PT,1667718163
270,port hedland,-20.3167,118.5667,89.65,27,98,21.85,AU,1667718156
271,srednekolymsk,67.45,153.6833,-1.12,93,100,14.38,RU,1667718168
272,carman,49.4992,-98.0016,33.89,66,90,12.93,CA,1667718170
273,ikornnes,62.3873,6.557,48.76,90,100,6.62,NO,1667718173
274,guano,-1.5833,-78.6333,48.02,93,72,0.72,EC,1667717958
275,talara,-4.5772,-81.2719,62.17,90,19,11.25,PE,1667718177
276,sterling,39.0062,-77.4286,69.78,83,98,16.11,US,1667718057
277,colac,-38.3333,143.5833,67.08,67,44,2.93,AU,1667718182
278,mahebourg,-20.4081,57.7,79.25,71,22,12.28,MU,1667718065
279,rabak,13.1809,32.74,89.2,18,20,16.93,SD,1667718187
280,flin flon,54.7682,-101.865,25.86,95,100,14.99,CA,1667718189
281,puerto escondido,15.85,-97.0667,77.83,69,40,4.61,MX,1667718192
282,palauig,15.435,119.9045,84.9,70,10,5.86,PH,1667718194
283,yeppoon,-23.1333,150.7333,76.78,62,43,19.06,AU,1667718197
284,scottsboro,34.6723,-86.0341,63.55,100,75,0.0,US,1667718200
285,berwick,41.0545,-76.2333,70.16,84,97,12.3,US,1667718024
286,hervey bay,-25.2986,152.8535,71.82,61,6,17.2,AU,1667718206
287,tabou,4.423,-7.3528,77.72,87,73,6.58,CI,1667718208
288,moron,-34.6534,-58.6198,64.15,73,9,9.35,AR,1667718211
289,havre-saint-pierre,50.2334,-63.5986,44.96,87,100,13.8,CA,1667718213
290,evanston,42.0411,-87.6901,46.58,78,20,11.5,US,1667718216
291,gat,31.61,34.7642,75.4,100,0,3.6,IL,1667718159
292,primero de enero,21.9469,-78.4283,71.11,90,0,3.89,CU,1667718221
293,novo aripuana,-5.1206,-60.3797,78.46,67,100,2.28,BR,1667718223
294,eganville,45.5334,-77.0994,65.52,83,100,17.78,CA,1667718226
295,hasaki,35.7333,140.8333,64.29,53,3,9.71,JP,1667718158
296,labuhan,-6.8844,112.2051,86.59,63,100,3.56,ID,1667718233
297,dingle,10.9995,122.6711,83.89,79,81,10.47,PH,1667718235
298,nome,64.5011,-165.4064,30.27,74,100,25.32,US,1667718117
299,tondano,1.3038,124.9112,77.09,83,100,1.36,ID,1667718240
300,sur,22.5667,59.5289,88.65,38,2,1.83,OM,1667718243
301,preili,56.2944,26.7246,37.17,96,100,8.7,LV,1667718245
302,rey bouba,8.6724,14.1786,76.41,33,32,3.74,CM,1667718248
303,rush,53.5223,-6.0931,53.87,80,40,11.5,IE,1667718250
304,novikovo,51.1537,37.8879,35.73,76,22,4.47,RU,1667717668
305,terekli-mekteb,44.1671,45.8698,43.57,62,91,5.93,RU,1667718255
306,gander,48.9682,-54.5906,42.17,93,100,15.99,CA,1667718030
307,pandan,14.0453,124.1694,81.54,85,100,9.08,PH,1667718260
308,alofi,-19.0595,-169.9187,75.09,78,3,10.36,NU,1667717883
309,abhar,36.1468,49.218,53.01,30,5,9.46,IR,1667718265
310,svetlogorsk,52.6333,29.7333,37.67,84,100,12.19,BY,1667718268
311,tazovskiy,67.4667,78.7,18.57,94,100,7.43,RU,1667718271
312,mbini,1.574,9.6134,77.79,88,99,7.09,GQ,1667718273
313,roros,62.5747,11.3842,30.04,100,100,0.0,NO,1667718276
314,cap malheureux,-19.9842,57.6142,79.47,66,12,7.0,MU,1667718278
315,ghanzi,-21.5667,21.7833,80.6,39,100,10.6,BW,1667718281
316,karema,-6.8205,30.4389,77.41,69,100,5.86,TZ,1667718283
317,shache,38.4167,77.2406,56.32,24,99,3.96,CN,1667718286
318,cabo san lucas,22.8909,-109.9124,72.52,64,0,3.0,MX,1667718117
319,baracoa,20.3467,-74.4958,73.92,86,17,2.8,CU,1667718290
320,san quintin,30.4833,-115.95,60.91,75,1,6.4,MX,1667718293
321,evensk,61.95,159.2333,24.39,96,100,4.83,RU,1667718295
322,baruun-urt,46.6806,113.2792,38.05,38,2,8.84,MN,1667718298
323,lanzhou,36.0564,103.7922,56.57,42,0,4.83,CN,1667718128
324,chipata,-13.6333,32.65,85.44,29,11,8.61,ZM,1667718303
325,port augusta,-32.5,137.7667,84.07,20,16,12.66,AU,1667718305
326,bentiu,9.2333,29.8333,89.11,24,87,6.55,SS,1667718308
327,mayumba,-3.432,10.6554,78.08,85,95,8.41,GA,1667718313
328,tilichiki,60.4667,166.1,28.92,91,94,6.29,RU,1667718315
329,eyl,7.9803,49.8164,83.55,53,6,8.77,SO,1667718318
330,roma,43.2128,-75.4557,71.82,65,100,11.99,US,1667718320
331,marsabit,2.3284,37.9899,69.89,67,54,14.45,KE,1667718140
332,haverfordwest,51.8017,-4.9691,54.99,88,96,3.0,GB,1667718325
333,port keats,-14.25,129.55,91.78,46,10,11.88,AU,1667718328
334,boguchany,58.3814,97.4531,33.1,78,100,7.29,RU,1667717893
335,huai mek,16.5898,103.2355,90.88,90,5,6.53,TH,1667718335
336,jalpan,21.2333,-99.4833,68.99,95,81,1.63,MX,1667718337
337,kodiak,57.79,-152.4072,27.91,59,0,8.05,US,1667718294
338,lazaro cardenas,17.9583,-102.2,75.69,91,35,3.31,MX,1667718342
339,kudahuvadhoo,2.6708,72.8944,81.28,77,91,11.07,MV,1667718213
340,lixourion,38.2019,20.4314,59.0,94,75,10.36,GR,1667718347
341,aketi,2.7388,23.7833,73.96,86,100,1.57,CD,1667718352
342,saint-joseph,-21.3667,55.6167,79.18,76,37,2.15,RE,1667718354
343,shingu,33.7333,135.9833,62.17,62,100,2.66,JP,1667718356
344,alice springs,-23.7,133.8833,92.75,10,29,6.91,AU,1667718193
345,bogorodskoye,56.55,37.8833,30.45,87,84,8.12,RU,1667718361
346,garowe,8.4054,48.4845,80.53,44,5,8.63,SO,1667718364
347,suntar,62.1444,117.6319,16.29,91,100,5.55,RU,1667718366
348,weihe,32.9952,105.3247,56.71,73,100,4.72,CN,1667718369
349,grand gaube,-20.0064,57.6608,79.38,66,11,7.0,MU,1667718127
350,itarema,-2.9248,-39.9167,78.78,82,100,10.42,BR,1667718374
351,cidreira,-30.1811,-50.2056,61.32,79,20,9.64,BR,1667718148
352,imeni poliny osipenko,52.4201,136.4853,19.76,72,6,5.01,RU,1667718381
353,bonthe,7.5264,-12.505,76.82,84,8,2.44,SL,1667718383
354,steinbach,50.1667,8.5667,43.02,100,42,1.14,DE,1667718386
355,tateyama,34.9833,139.8667,66.09,62,95,10.87,JP,1667718389
356,rio grande,-32.035,-52.0986,60.85,82,0,11.18,BR,1667718391
357,faya,18.3851,42.4509,72.12,41,4,1.81,SA,1667718394
358,santa cruz,-17.8,-63.1667,62.06,77,0,6.91,BO,1667718399
359,sept-iles,50.2001,-66.3821,47.05,92,100,13.0,CA,1667718401
360,elko,41.0002,-115.5012,38.05,86,100,3.0,US,1667718022
361,palu,-0.8917,119.8707,87.17,68,83,3.36,ID,1667718406
362,inirida,3.8653,-67.9239,74.46,81,100,1.16,CO,1667718409
363,havelock,34.8791,-76.9013,75.18,89,100,8.08,US,1667718411
364,mutare,-18.9707,32.6709,75.02,73,33,5.39,ZW,1667718416
365,north bend,43.4065,-124.2243,48.85,100,40,8.05,US,1667718420
366,naryan-mar,67.6713,53.087,32.97,92,100,4.54,RU,1667718422
367,iwanai,42.9744,140.5089,42.89,59,7,6.96,JP,1667718425
368,alihe,50.5667,123.7167,32.54,50,6,3.09,CN,1667718175
369,kabare,-2.4683,28.8242,65.53,90,98,2.98,CD,1667718430
370,aklavik,68.2191,-135.0107,9.39,75,100,15.57,CA,1667718334
371,havoysund,70.9963,24.6622,41.23,97,100,14.79,NO,1667718435
372,meulaboh,4.1363,96.1285,83.7,67,100,5.59,ID,1667718438
373,westport,41.1415,-73.3579,66.74,86,20,5.75,US,1667718382
374,satun,6.8333,100.0,89.6,73,100,3.69,TH,1667718443
375,sao filipe,14.8961,-24.4956,78.26,68,1,3.62,CV,1667718122
376,khoy,38.5504,44.9535,57.47,34,0,1.7,IR,1667718448
377,khorixas,-20.3667,14.9667,74.79,31,99,7.29,NA,1667718450
378,rio gallegos,-51.6226,-69.2181,47.16,89,71,9.4,AR,1667718310
379,thinadhoo,0.5333,72.9333,81.43,75,26,9.69,MV,1667718433
380,santa maria,-29.6842,-53.8069,53.94,94,1,8.86,BR,1667718325
381,sao jose da coroa grande,-8.8978,-35.1478,73.98,90,98,5.14,BR,1667718459
382,bagdarin,54.4333,113.6,27.32,55,11,3.49,RU,1667718462
383,ripoll,42.2006,2.1903,46.42,41,22,3.87,ES,1667718464
384,leh,34.1667,77.5833,36.45,41,100,3.67,IN,1667718415
385,provideniya,64.3833,-173.3,35.64,99,100,21.47,RU,1667718469
386,egvekinot,66.3167,-179.1667,28.42,97,100,14.03,RU,1667718472
387,andilamena,-17.0167,48.5833,79.52,35,9,5.97,MG,1667718474
388,adrar,20.5022,-10.0711,68.38,19,0,8.81,MR,1667718238
389,asau,46.4333,26.4,50.13,95,100,3.27,RO,1667718479
390,troitskoye,52.9821,84.6757,39.58,85,100,10.11,RU,1667718481
391,zalantun,48.0,122.7167,43.07,44,94,4.54,CN,1667718484
392,nuuk,64.1835,-51.7216,25.41,93,75,10.36,GL,1667718486
393,corner brook,48.9667,-57.9484,50.36,94,100,3.53,CA,1667718240
394,nichinan,31.6,131.3667,64.81,58,100,8.01,JP,1667718491
395,huanan,46.2167,130.5167,39.0,43,15,10.11,CN,1667718320
396,caohai,26.8661,104.2841,58.82,62,14,7.65,CN,1667718499
397,kahului,20.8947,-156.47,79.84,79,62,5.99,US,1667718066
398,juneau,58.3019,-134.4197,28.22,76,40,5.75,US,1667718463
399,porbandar,21.6422,69.6093,88.0,34,3,5.79,IN,1667718510
400,necochea,-38.5473,-58.7368,52.0,94,77,12.1,AR,1667718513
401,preobrazheniye,42.9019,133.9064,43.34,39,13,6.29,RU,1667718515
402,gizo,-8.103,156.8419,83.32,72,38,2.19,SB,1667718518
403,ukiah,39.1502,-123.2078,54.45,92,100,0.0,US,1667718520
404,yantongshan,43.2919,126.0094,42.67,53,100,5.55,CN,1667718318
405,xining,36.6167,101.7667,50.54,27,5,3.87,CN,1667718294
406,garmsar,35.2182,52.3409,66.24,21,1,6.35,IR,1667718527
407,kousseri,12.0769,15.0306,78.26,19,7,8.19,CM,1667718530
408,khuzdar,27.7384,66.6434,73.02,18,100,4.25,PK,1667718533
409,solnechnyy,50.7214,136.6319,25.36,43,0,0.31,RU,1667718537
410,kahramanmaras,38.0,37.0,54.0,38,0,1.28,TR,1667718540
411,makakilo city,21.3469,-158.0858,79.12,69,0,13.8,US,1667718541
412,tshikapa,-6.4167,20.8,75.11,81,92,2.82,CD,1667718545
413,wenzhou,27.9994,120.6668,66.79,57,100,6.85,CN,1667718548
414,partizansk,43.1258,133.1339,38.64,45,12,3.53,RU,1667718550
415,severo-kurilsk,50.6789,156.125,38.1,85,100,9.71,RU,1667718077
416,padang,-0.9492,100.3543,87.85,74,88,4.92,ID,1667718557
417,dwarka,22.2394,68.9678,86.4,44,100,8.28,IN,1667718560
418,bergen,60.392,5.328,49.15,97,75,10.36,NO,1667718567
419,chateaurenard,43.8817,4.8549,46.36,89,0,3.44,FR,1667718570
420,berdigestyakh,62.0989,126.6992,3.07,94,100,6.71,RU,1667718572
421,novokruchininskiy,51.7833,113.7667,37.13,64,95,10.16,RU,1667718575
422,yukuhashi,33.7287,130.983,65.25,52,100,5.7,JP,1667718577
423,huanren,41.2647,125.3667,45.45,55,100,5.28,CN,1667718320
424,narsaq,60.9167,-46.05,44.82,89,100,0.87,GL,1667718582
425,zverinogolovskoye,54.4586,64.8542,29.37,88,100,10.87,RU,1667718584
426,geraldton,-28.7667,114.6,75.61,57,0,20.71,AU,1667718587
427,chipinge,-20.1883,32.6236,77.18,60,29,2.73,ZW,1667718589
428,abu dhabi,24.4667,54.3667,87.96,60,0,4.61,AE,1667718592
429,batagay-alyta,67.8006,130.4114,-9.38,93,92,4.47,RU,1667718594
430,iracoubo,5.4802,-53.2011,77.34,86,86,3.85,GF,1667718597
431,talcahuano,-36.7167,-73.1167,47.88,93,0,2.3,CL,1667718599
432,challans,46.8436,-1.8749,56.97,94,100,20.11,FR,1667718602
433,belaya kholunitsa,58.84,50.8528,30.76,84,88,7.43,RU,1667718488
434,vestmannaeyjar,63.4427,-20.2734,43.95,84,100,28.66,IS,1667718075
435,port-gentil,-0.7193,8.7815,78.76,94,40,4.61,GA,1667718609
436,doha,25.2867,51.5333,86.31,48,0,8.05,QA,1667718612
437,la ronge,55.1001,-105.2842,22.03,80,100,19.93,CA,1667718617
438,iqaluit,63.7506,-68.5145,6.22,96,99,4.36,CA,1667718619
439,seymour,38.9592,-85.8903,56.07,79,0,4.0,US,1667718406
440,dakar,14.6937,-17.4441,81.05,60,99,15.41,SN,1667718624
441,estevan,49.1334,-102.9842,30.54,86,100,39.12,CA,1667718627
442,chiredzi,-21.05,31.6667,84.87,55,8,9.48,ZW,1667718629
443,coquimbo,-29.9533,-71.3436,53.33,82,0,8.05,CL,1667718601
444,voorst,52.1667,6.1333,50.14,89,100,15.39,NL,1667718634
445,caucaia,-3.7361,-38.6531,80.55,79,75,8.05,BR,1667718639
446,sringeri,13.4167,75.25,84.04,48,79,5.08,IN,1667718641
447,mehamn,71.0357,27.8492,40.95,93,100,12.66,NO,1667718584
448,tessalit,20.1986,1.0114,71.35,19,0,6.89,ML,1667718646
449,bellevue,47.6104,-122.2007,46.02,76,100,11.5,US,1667718648
450,naze,28.3667,129.4833,67.26,67,74,9.75,JP,1667718653
451,montbrison,45.6667,4.0833,37.74,72,99,4.7,FR,1667718655
452,bayangol,50.6977,103.4656,35.87,51,11,2.19,RU,1667718658
453,ranau,5.9538,116.6641,78.57,82,100,2.24,MY,1667718660
454,iskateley,67.6803,53.1512,32.94,91,100,4.32,RU,1667718470
455,deputatskiy,69.3,139.9,-3.77,94,100,9.51,RU,1667718262
456,antofagasta,-23.65,-70.4,60.08,86,63,5.88,CL,1667718668
457,urzhum,57.1141,49.9996,28.83,79,65,7.61,RU,1667718670
458,mitsamiouli,-11.3847,43.2844,80.13,70,0,11.72,KM,1667718673
459,vangaindrano,-23.35,47.6,81.59,61,100,10.74,MG,1667718676
460,bac lieu,9.285,105.7244,83.37,75,100,11.25,VN,1667718386
461,mimarsinan,41.0032,28.5377,67.59,50,100,3.15,TR,1667718680
462,najran,17.4924,44.1277,75.61,24,0,5.59,SA,1667718684
463,ixtapa,20.7,-105.2,67.86,94,4,2.57,MX,1667718686
464,manono,-7.3,27.4167,79.03,68,100,0.76,CD,1667718691
465,kemin,42.7846,75.6892,53.73,57,100,4.63,KG,1667718693
466,de-kastri,51.4667,140.7833,22.53,74,11,7.38,RU,1667718696
467,salalah,17.0151,54.0924,87.89,55,0,2.3,OM,1667718355
468,sechura,-5.5569,-80.8222,60.8,91,10,6.91,PE,1667718546
469,tarko-sale,64.9225,77.785,27.28,97,99,2.13,RU,1667718703
470,derzhavinsk,51.1,66.3167,32.2,60,24,13.04,KZ,1667718705
471,bay roberts,47.5999,-53.2648,53.51,94,69,3.0,CA,1667718708
472,sao miguel do araguaia,-13.275,-50.1628,72.5,70,3,4.88,BR,1667718713
473,veraval,20.9,70.3667,87.62,36,66,5.55,IN,1667718660
474,bongued,7.1167,124.4,88.34,66,91,4.14,PH,1667718717
475,port moresby,-9.4431,147.1797,81.81,81,88,9.28,PG,1667718720
476,umm lajj,25.0213,37.2685,80.2,36,72,10.98,SA,1667718722
477,broken hill,-31.95,141.4333,78.57,24,76,5.01,AU,1667718725
478,mangrol,21.1167,70.1167,87.58,35,99,4.03,IN,1667718728
479,jardim,-21.4803,-56.1381,59.94,70,0,2.51,BR,1667718730
480,duluth,46.7833,-92.1066,40.28,90,100,11.5,US,1667718595
481,nenjiang,49.1833,125.2167,37.02,51,6,3.6,CN,1667718735
482,muzaffarabad,34.37,73.4711,70.3,51,100,4.41,PK,1667718738
483,atambua,-9.1061,124.8925,84.97,59,71,1.7,ID,1667718740
484,oda,35.1833,132.5,59.04,59,7,4.83,JP,1667718743
485,indianola,41.3581,-93.5574,51.1,62,100,22.59,US,1667718745
486,poum,-20.2333,164.0167,79.84,75,3,4.38,NC,1667718748
487,catarman,12.4989,124.6377,81.79,84,100,6.35,PH,1667718751
488,erbiceni,47.2667,27.2333,51.08,72,100,12.62,RO,1667718753
489,nizwa,22.9333,57.5333,84.22,27,10,7.83,OM,1667718756
490,sao joao do piaui,-8.3581,-42.2467,73.02,89,100,7.02,BR,1667718758
491,pacific grove,36.6177,-121.9166,59.67,91,97,5.99,US,1667718540
492,caicedo,6.4051,-75.9826,56.37,95,100,2.95,CO,1667718763
493,shibganj,24.6829,88.1598,85.96,41,2,1.88,BD,1667718766
494,quibdo,5.6947,-76.6611,72.07,99,100,1.74,CO,1667718768
495,constitucion,-35.3333,-72.4167,49.66,89,0,6.38,CL,1667718771
496,porto santo,33.072,-16.3415,68.38,77,75,5.75,PT,1667718773
497,zomin,39.9606,68.3958,61.66,45,64,3.71,UZ,1667718776
498,husavik,66.0449,-17.3389,35.2,93,56,8.39,IS,1667718778
499,severo-yeniseyskiy,60.3725,93.0408,24.12,89,100,7.4,RU,1667718780
500,caravelas,-17.7125,-39.2481,71.74,69,100,9.62,BR,1667718783
501,pokhara,28.2333,83.9833,75.13,45,2,6.08,NP,1667718786
502,sorland,67.667,12.6934,46.26,87,100,12.55,NO,1667718375
503,luanda,-8.8368,13.2343,78.21,79,100,5.23,AO,1667718558
504,olafsvik,64.8945,-23.7142,39.85,61,81,9.4,IS,1667718794
505,christchurch,-43.5333,172.6333,56.95,67,100,18.41,NZ,1667718606
506,biak,-0.9131,122.8766,83.55,71,58,4.99,ID,1667718801
507,puerto leguizamo,-0.1934,-74.7819,71.98,83,81,1.23,CO,1667718804
508,sri aman,1.2376,111.4621,80.96,92,100,3.29,MY,1667718806
509,karaton,-6.3424,106.1045,83.12,72,100,1.41,ID,1667718809
510,rodrigues alves,-7.738,-72.6509,66.4,66,6,1.79,BR,1667718811
511,kulhudhuffushi,6.6221,73.07,81.01,69,96,0.98,MV,1667718816
512,bissora,12.2231,-15.4475,69.64,75,11,0.81,GW,1667718818
513,senekal,-28.3197,27.6208,71.06,44,0,13.44,ZA,1667718821
514,ramnagar,29.4,79.1167,79.03,50,100,3.85,IN,1667718823
515,prainha,-1.8,-53.48,72.95,96,95,0.92,BR,1667718828
516,kathmandu,27.7167,85.3167,73.62,49,20,3.44,NP,1667718741
517,palm coast,29.585,-81.2078,77.0,96,99,1.99,US,1667718716
518,damghan,36.1683,54.348,59.43,36,5,3.29,IR,1667718835
519,kang,-23.6752,22.7876,80.62,17,94,12.88,BW,1667718838
520,menongue,-14.6585,17.691,70.75,67,65,3.02,AO,1667718840
521,los llanos de aridane,28.6585,-17.9182,64.15,78,0,10.36,ES,1667718843
522,nang rong,14.6377,102.7914,84.31,52,19,10.29,TH,1667718846
523,porto uniao,-26.2381,-51.0783,50.56,93,100,3.27,BR,1667718848
524,port alberni,49.2413,-124.8028,42.12,90,100,1.01,CA,1667718851
525,sokoni,-6.4333,39.55,79.23,78,0,8.43,TZ,1667718853
526,pampa,35.5362,-100.9599,55.18,61,0,10.36,US,1667718856
527,aitape,-3.1374,142.3475,84.69,72,61,5.17,PG,1667718858
528,avera,33.194,-82.5271,69.85,95,97,13.6,US,1667718861
529,araouane,18.9048,-3.5265,72.75,20,0,12.57,ML,1667718751
530,metro,-5.1131,105.3067,78.15,87,100,4.05,ID,1667718866
531,muros,42.7762,-9.0603,61.09,90,96,11.65,ES,1667718868
532,asandh,29.5167,76.6,83.32,41,100,8.14,IN,1667718871
533,berlevag,70.8578,29.0864,41.0,87,100,13.8,NO,1667718736
534,pecos,31.4229,-103.4932,67.3,23,0,11.5,US,1667718827
535,katobu,-4.9408,122.5276,85.69,67,99,3.51,ID,1667718878
536,tautira,-17.7333,-149.15,75.9,87,100,29.37,PF,1667718423
537,alcudia,39.8532,3.1214,57.38,65,42,8.43,ES,1667718882
538,george town,5.4112,100.3354,89.53,77,20,8.05,MY,1667718693
539,buala,-8.145,159.5921,81.43,80,100,5.99,SB,1667718887
540,petropavlovsk-kamchatskiy,53.0452,158.6483,30.79,93,40,4.47,RU,1667718889
541,guerrero negro,27.9769,-114.0611,63.84,72,0,10.92,MX,1667718894
542,rudbar,30.15,62.6,75.69,34,100,8.16,AF,1667718897
543,la romana,18.4273,-68.9728,71.26,91,0,5.19,DO,1667718899
544,melito di porto salvo,37.9222,15.7714,63.54,77,75,13.8,IT,1667718902
545,lower hutt,-41.2167,174.9167,62.51,71,68,5.75,NZ,1667718670
546,yarada,17.65,83.2667,88.12,48,20,5.75,IN,1667718909
547,kinsale,51.7075,-8.5306,53.24,93,75,12.66,IE,1667718911
548,miramar,25.9873,-80.2323,79.99,86,40,11.5,US,1667718914
549,macusani,-14.0833,-70.4333,37.04,77,38,2.28,PE,1667718916
550,buchanan,5.8808,-10.0467,76.24,88,72,5.55,LR,1667718919
551,kavieng,-2.5744,150.7967,84.15,69,100,5.37,PG,1667718921
552,williams lake,52.1415,-122.1445,17.17,85,100,9.22,CA,1667718926
553,ambilobe,-13.2,49.05,94.59,30,0,6.69,MG,1667718931
554,burnie,-41.0667,145.9167,65.95,72,75,7.67,AU,1667718933
555,jay,44.5039,-70.2162,64.35,66,88,4.0,US,1667718936
556,baoro,5.6667,15.9667,75.18,48,64,3.56,CF,1667718938
557,ketchikan,55.3422,-131.6461,31.71,71,24,9.62,US,1667718682
558,karratha,-20.7377,116.8463,80.17,43,93,21.74,AU,1667718943
559,kaduqli,11.0167,29.7167,86.23,19,53,15.14,SD,1667718946
560,paamiut,61.994,-49.6678,30.4,78,100,27.87,GL,1667718948
561,crevenicu,44.2408,25.5886,59.99,80,100,16.24,RO,1667718951
562,anloga,5.7947,0.8973,80.38,81,83,7.56,GH,1667718953
563,abu samrah,35.3029,37.1841,70.84,31,5,5.5,SY,1667718514
564,sisimiut,66.9395,-53.6735,17.22,78,22,10.6,GL,1667718958
565,orange cove,36.6244,-119.3137,56.57,71,75,5.75,US,1667718960
566,pilar,-9.5972,-35.9567,71.53,97,75,4.27,BR,1667718963
567,san mateo del mar,16.2,-95.0,79.7,83,71,5.88,MX,1667718965
568,lemon tree passage,-32.7327,152.036,70.11,76,100,8.01,AU,1667718968
569,snezhnogorsk,69.1933,33.2531,35.38,89,100,13.4,RU,1667718970
570,pekalongan,-6.8886,109.6753,84.76,72,79,5.1,ID,1667718973
571,muisne,0.6,-80.0333,72.57,82,100,6.11,EC,1667718973
572,sobolevo,54.4299,31.8996,32.67,75,100,13.15,RU,1667718980
573,sun valley,39.5963,-119.776,52.72,69,100,9.22,US,1667718782
574,raudeberg,61.9875,5.1352,43.95,1,100,12.21,NO,1667718985
575,lavrentiya,65.5833,-171.0,33.75,98,100,32.77,RU,1667718987
